[
	{
		"address": "201 Canterbury Road, Bankstown NSW 2200, Australia",
		"category": 1,
		"lat": -33.9335702,
		"lng": 151.0267475,
		"title": "Bankstown Gun Shop"
	},
	{
		"address": "139 Kite Street, Orange, NSW, 2800",
		"category": 1,
		"lat": -33.2858503,
		"lng": 149.1025165,
		"title": "Bullets & Bits"
	},
	{
		"address": "15 June St, Coffs Harbour NSW 2450, Australia",
		"category": 1,
		"lat": -30.2901916,
		"lng": 153.1170177,
		"title": "Coffs Coast Firearms"
	},
	{
		"address": "2/28 Harley Crescent, Condell Park NSW 2200, Australia",
		"category": 1,
		"lat": -33.9227555,
		"lng": 150.9971539,
		"title": "Condell Park Indoor Firearms Range"
	},
	{
		"address": "16/40 Hyde St, South Grafton NSW 2460, Australia",
		"category": 1,
		"lat": -29.7267401,
		"lng": 152.9402691,
		"title": "Grafton Firearms"
	},
	{
		"address": "125-127 Talbragar Street, Dubbo NSW 2830, Australia",
		"category": 1,
		"lat": -32.2456532,
		"lng": 148.6052094,
		"title": "GunPro"
	},
	{
		"address": "84 Durham Street, Bathurst NSW 2795, Australia",
		"category": 1,
		"lat": -33.4138595,
		"lng": 149.5810041,
		"title": "Gunsmoke Bathurst"
	},
	{
		"address": "84 Bridge Street, Uralla NSW 2358, Australia",
		"category": 1,
		"lat": -30.641969,
		"lng": 151.500215,
		"title": "Hunting Haven"
	},
	{
		"address": "98 Mortimer Street, Mudgee NSW 2850, Australia",
		"category": 1,
		"lat": -32.5925868,
		"lng": 149.5860497,
		"title": "Mudgee Firearms & Shooting"
	},
	{
		"address": "2/78 Seventh Street, Boolaroo NSW 2284, Australia",
		"category": 1,
		"lat": -32.954763,
		"lng": 151.6165755,
		"title": "Newcastle Armoury"
	},
	{
		"address": "21 Copland Street, Kooringal Wagga Wagga, NSW 2650, Australia",
		"category": 1,
		"lat": -35.1248101,
		"lng": 147.3789223,
		"title": "Power Ammo Supply"
	},
	{
		"address": "2 / 17 Bellevue Street Nowra NSW 2541",
		"category": 1,
		"lat": -34.9116861,
		"lng": 150.5982444,
		"title": "Shoalhaven Shooting Supplies"
	},
	{
		"address": "1/2 Mineral Road, Oak Flats NSW 2529, Australia",
		"category": 1,
		"lat": -34.5662311,
		"lng": 150.8093122,
		"title": "Southern Firearms"
	},
	{
		"address": "30 Power Street, St Marys NSW 2760, Australia",
		"category": 1,
		"lat": -33.7519918,
		"lng": 150.7758219,
		"title": "St Mary\\u2019s Indoor Shooting Centre"
	},
	{
		"address": "149 Keen Street, Lismore NSW 2480, Australia",
		"category": 1,
		"lat": -28.8093816,
		"lng": 153.2779214,
		"title": "Suffolks Outdoor Sports"
	},
	{
		"address": "532 Peel Street, Tamworth NSW 2340, Australia",
		"category": 1,
		"lat": -31.0987026,
		"lng": 150.9378702,
		"title": "Tamworth Firearms"
	},
	{
		"address": "35 Carrington St, Queanbeyan East NSW 2620, Australia",
		"category": 1,
		"lat": -35.3401846,
		"lng": 149.2405351,
		"title": "Tough Gear Hunting"
	},
	{
		"address": "71-79 York Street, Launceston TAS 7250, Australia",
		"category": 1,
		"lat": -41.4389683,
		"lng": 147.1397875,
		"title": "Allgoods Launceston"
	},
	{
		"address": "5 King Street, Scottsdale TAS 7260, Australia",
		"category": 1,
		"lat": -41.1601358,
		"lng": 147.5186353,
		"title": "Hodgetts Outdoors"
	},
	{
		"address": "43 High Street, New Norfolk TAS 7140, Australia",
		"category": 1,
		"lat": -42.781083,
		"lng": 147.063372,
		"title": "New Norfolk Gun Shop"
	},
	{
		"address": "4/34 Mertonvale Circuit, Kingston TAS 7050, Australia",
		"category": 1,
		"lat": -42.9819994,
		"lng": 147.2934545,
		"title": "Southern Range Sports"
	},
	{
		"address": "101 Invermay Road, Invermay TAS 7248, Australia",
		"category": 1,
		"lat": -41.4258119,
		"lng": 147.1367314,
		"title": "Sports Hut"
	},
	{
		"address": "37 Wilson Street, Burnie TAS 7320, Australia",
		"category": 1,
		"lat": -41.0515408,
		"lng": 145.906952,
		"title": "Tassie Tackle & Outdoors"
	},
	{
		"address": "108-114 Gilbert Street, Latrobe TAS 7307, Australia",
		"category": 1,
		"lat": -41.2367628,
		"lng": 146.4108559,
		"title": "Wells Firearms & Sporting"
	},
	{
		"address": "927 Wangaratta-Whitfield Road, Oxley VIC 3678, Australia",
		"category": 1,
		"lat": -36.4312267,
		"lng": 146.3588738,
		"title": "A & W Grassi"
	},
	{
		"address": "14 Rowan Street, Wangaratta VIC 3677, Australia",
		"category": 1,
		"lat": -36.3528721,
		"lng": 146.3239418,
		"title": "Adventure Camping & Fishing"
	},
	{
		"address": "6 Saskia Way, Morwell VIC 3840, Australia",
		"category": 1,
		"lat": -38.2366662,
		"lng": 146.4339092,
		"title": "Alpine Country"
	},
	{
		"address": "35 Superior Drive, Dandenong, VIC, 3175",
		"category": 1,
		"lat": -38.0334182,
		"lng": 145.2027492,
		"title": "Armoury & Ammunition"
	},
	{
		"address": "2 / 493 Main Street, Bairnsdale, VIC, 3875",
		"category": 1,
		"lat": -37.835697,
		"lng": 147.602692,
		"title": "Bairnsdale Firearms"
	},
	{
		"address": "203-205 Manifold Street, Camperdown VIC 3260, Australia",
		"category": 1,
		"lat": -38.2319959,
		"lng": 143.1454492,
		"title": "Benallack\\u2019s Sports"
	},
	{
		"address": "77 Woods Street, Donald VIC 3480, Australia",
		"category": 1,
		"lat": -36.3711137,
		"lng": 142.9836603,
		"title": "Buloke Firearms"
	},
	{
		"address": "1-2 / 61 Tramway Road, Morwell, VIC, 3840",
		"category": 1,
		"lat": -38.2382086,
		"lng": 146.438536,
		"title": "C&A Canvas & Outdoors"
	},
	{
		"address": "220 Cooper Street, Epping VIC 3076, Australia",
		"category": 1,
		"lat": -37.6497536,
		"lng": 145.0110602,
		"title": "Epping Firearms"
	},
	{
		"address": "23 McCormick Road, Kyabram VIC 3620, Australia",
		"category": 1,
		"lat": -36.307179,
		"lng": 145.034328,
		"title": "GFD Guns & Ammo"
	},
	{
		"address": "3-12 Gordon Street, Bairnsdale VIC 3875, Australia",
		"category": 1,
		"lat": -37.8345121,
		"lng": 147.6082001,
		"title": "Gunsport Trading"
	},
	{
		"address": "61 Princes Highway, Sale VIC 3850, Australia",
		"category": 1,
		"lat": -38.0884162,
		"lng": 147.0693718,
		"title": "Howard & Schuback Sports Store"
	},
	{
		"address": "2/12 June Court, Warragul VIC 3820, Australia",
		"category": 1,
		"lat": -38.1631218,
		"lng": 145.9506717,
		"title": "In Season Hunting & Fishing"
	},
	{
		"address": "27 Hamilton Road, Horsham VIC 3400, Australia",
		"category": 1,
		"lat": -36.7357896,
		"lng": 142.2054674,
		"title": "J & A Shooting Supplies"
	},
	{
		"address": "2-4 Ingor Street, Ararat VIC 3377, Australia",
		"category": 1,
		"lat": -37.2835788,
		"lng": 142.9284038,
		"title": "Lardner Bros"
	},
	{
		"address": "91 Bedford Road, Ringwood East VIC 3135, Australia",
		"category": 1,
		"lat": -37.818852,
		"lng": 145.243608,
		"title": "Melbourne Firearms Centre"
	},
	{
		"address": "4/6 Ovata Drive, Tullamarine VIC 3043, Australia",
		"category": 1,
		"lat": -37.7112875,
		"lng": 144.8658593,
		"title": "Melbourne Gun Works"
	},
	{
		"address": "3 Barn Deet Street, Red Cliffs, VIC, 3496",
		"category": 1,
		"lat": -34.3075,
		"lng": 142.188056,
		"title": "MK1 Developments"
	},
	{
		"address": "869 High Street, Thornbury VIC 3071, Australia",
		"category": 1,
		"lat": -37.7543894,
		"lng": 145.0011077,
		"title": "O\\u2019Reilly\\u2019s Firearms"
	},
	{
		"address": "17 Tenth Street, Mildura VIC 3500, Australia",
		"category": 1,
		"lat": -34.1958613,
		"lng": 142.1678611,
		"title": "Presto\\u2019s Hunting & Shooting"
	},
	{
		"address": "113 Derril Road, Portland VIC 3305, Australia",
		"category": 1,
		"lat": -38.3701608,
		"lng": 141.6102011,
		"title": "R & B Firearms"
	},
	{
		"address": "910 Howitt Street, Wendouree VIC 3355, Australia",
		"category": 1,
		"lat": -37.5412152,
		"lng": 143.8420441,
		"title": "R.F Scott"
	},
	{
		"address": "41-43 Anzac Avenue, Seymour VIC 3660, Australia",
		"category": 1,
		"lat": -37.0267078,
		"lng": 145.1404672,
		"title": "Seymour Total Sports"
	},
	{
		"address": "141 Charleston Road, East Bendigo VIC 3550, Australia",
		"category": 1,
		"lat": -36.751721,
		"lng": 144.2943385,
		"title": "Smiths Outdoors"
	},
	{
		"address": "92 Gray Street, Hamilton, VIC, 3300",
		"category": 1,
		"lat": -37.7439606,
		"lng": 142.0234035,
		"title": "SportsPower Hamilton"
	},
	{
		"address": "209 Corio Street, Shepparton VIC 3630, Australia",
		"category": 1,
		"lat": -36.3840897,
		"lng": 145.4031707,
		"title": "Trelleys Fishing & Outdoor World"
	},
	{
		"address": "4/9 Clarke Street, Lilydale VIC 3140, Australia",
		"category": 1,
		"lat": -37.7581145,
		"lng": 145.3505583,
		"title": "Yarra Valley Hunting"
	},
	{
		"address": "28 Erceg Rd, Yangebup WA 6164, Australia",
		"category": 1,
		"lat": -32.1203633,
		"lng": 115.7992596,
		"title": "Claremont Firearms"
	},
	{
		"address": "438 Carrington Street, Hamilton Hill WA 6163, Australia",
		"category": 1,
		"lat": -32.0858833,
		"lng": 115.777073,
		"title": "Cockburn Guns and Ammo"
	},
	{
		"address": "60 Guthrie St, Osborne Park WA 6017, Australia",
		"category": 1,
		"lat": -31.9047336,
		"lng": 115.8134141,
		"title": "Downrange Firearms"
	},
	{
		"address": "1120 Coolawanyah Rd, Karratha Industrial Estate WA 6714, Australia",
		"category": 1,
		"lat": -20.7682453,
		"lng": 116.8678898,
		"title": "Karratha Shooting Supplies"
	},
	{
		"address": "44 Eighth Ave, Maylands WA 6051, Australia",
		"category": 1,
		"lat": -31.9296506,
		"lng": 115.8933357,
		"title": "Roy Alexander & Sons"
	},
	{
		"address": "113 Victoria St, Bunbury WA 6230, Australia",
		"category": 1,
		"lat": -33.3248,
		"lng": 115.6368588,
		"title": "Sportsmarine"
	},
	{
		"address": "U3/13 Shanahan Road, Davenport, WA, 6230",
		"category": 1,
		"lat": -33.3646262,
		"lng": 115.6730958,
		"title": "The Gun Store"
	},
	{
		"address": "20 Magill Road, Norwood SA 5067, Australia",
		"category": 1,
		"lat": -34.915718,
		"lng": 138.623887,
		"title": "Fisher Firearms"
	},
	{
		"address": "28 Orsmond Street, Hindmarsh SA 5007, Australia",
		"category": 1,
		"lat": -34.9077304,
		"lng": 138.5724755,
		"title": "GunForce"
	},
	{
		"address": "51 Beach Road, Christies Beach SA 5165, Australia",
		"category": 1,
		"lat": -35.1390512,
		"lng": 138.4755342,
		"title": "The Gunnery"
	},
	{
		"address": "3/101 Grand Plaza Drive, Browns Plains, QLD, 4118",
		"category": 1,
		"lat": -27.6623999,
		"lng": 153.0435281,
		"title": "Browns Plains Firearms"
	},
	{
		"address": "3/21-23 Aerodrome Road, Caboolture, QLD, 4510",
		"category": 1,
		"lat": -27.0843611,
		"lng": 152.9812352,
		"title": "Caboolture Firearms"
	},
	{
		"address": "7 Lawson Street, Mackay QLD 4740, Australia",
		"category": 1,
		"lat": -21.1425988,
		"lng": 149.192395,
		"title": "Mackay Gun Shop"
	},
	{
		"address": "24 McMahon Road, Monkland QLD 4570, Australia",
		"category": 1,
		"lat": -26.2182945,
		"lng": 152.6848598,
		"title": "Owen Guns"
	},
	{
		"address": "47 McDowall Street, Roma QLD 4455, Australia",
		"category": 1,
		"lat": -26.5716723,
		"lng": 148.7916739,
		"title": "Roma Outdoors & Sports"
	},
	{
		"address": "94 Aerodrome Road, Maroochydore QLD 4558, Australia",
		"category": 1,
		"lat": -26.6587474,
		"lng": 153.0961064,
		"title": "Sunshine Coast Gun Shop"
	},
	{
		"address": "26 McKenzie Place, Yarrawonga NT 0830, Australia",
		"category": 1,
		"lat": -12.4686227,
		"lng": 130.9843081,
		"title": "Coolalinga Guns + Ammo"
	},
	{
		"address": "36 Cavenagh Street, Darwin NT 0800, Australia",
		"category": 1,
		"lat": -12.461991,
		"lng": 130.842788,
		"title": "Fishing & Outdoor World"
	},
	{
		"address": "3/45 Heffernan Street, Mitchell ACT 2911, Australia",
		"category": 1,
		"lat": -35.2185089,
		"lng": 149.1418268,
		"title": "Shooters Wholesale Warehouse"
	},
	{
		"address": "1848 The Horsley Dr, Horsley Park NSW 2175, Australia",
		"category": 1,
		"lat": -33.8415667,
		"lng": 150.8465908,
		"title": "Horsley Park Gun Shop"
	},
	{
		"address": "13 Watsford Rd, Campbelltown NSW 2560, Australia",
		"category": 1,
		"lat": -34.0594086,
		"lng": 150.8176461,
		"title": "Abela's Gun Shop"
	},
	{
		"address": "146 Stoney Creek Rd, Bexley NSW 2207, Australia",
		"category": 1,
		"lat": -33.9489507,
		"lng": 151.1140605,
		"title": "Safari Firearms"
	},
	{
		"address": "19 Babbage Rd, Roseville Chase NSW 2069, Australia",
		"category": 1,
		"lat": -33.778481,
		"lng": 151.195287,
		"title": "Magnum Sports"
	},
	{
		"address": "54-56 Kendal St, Cowra NSW 2794, Australia",
		"category": 1,
		"lat": -33.8341033,
		"lng": 148.6897812,
		"title": "Cowboy Guns & Gear"
	},
	{
		"address": "582 David St, Albury NSW 2640, Australia",
		"category": 1,
		"lat": -36.0769337,
		"lng": 146.9219334,
		"title": "Elk's Hunting & Fishing"
	},
	{
		"address": "1/54 Pilkington St, Garbutt QLD 4814, Australia",
		"category": 1,
		"lat": -19.271515,
		"lng": 146.7674147,
		"title": "Townsville Gun Shop"
	},
	{
		"address": "1/3285 Logan Rd, Underwood QLD 4119",
		"category": 1,
		"lat": -27.6122843,
		"lng": 153.1166701,
		"title": "Shooter's Delight"
	},
	{
		"address": "21 Clermont St, Emerald QLD 4720, Australia",
		"category": 1,
		"lat": -23.5254375,
		"lng": 148.1586875,
		"title": "The Outpost - Arms &amp; Munitions - Emerald"
	},
	{
		"address": "3/8 Sampson St, Maddington WA 6109, Australia",
		"category": 1,
		"lat": -32.04881,
		"lng": 115.9807885,
		"title": "Beaton Firearms"
	},
	{
		"address": "28 Erceg Rd, Yangebup WA 6164, Australia",
		"category": 1,
		"lat": -32.1203633,
		"lng": 115.7992596,
		"title": "Claremont Firearms"
	},
	{
		"address": "361 Lawrence Rd, Tungamah VIC 3728, Australia",
		"category": 1,
		"lat": -36.1892187,
		"lng": 145.7899564,
		"title": "Northern Vic Ammo"
	},
	{
		"address": "47 Assembly Dr, Tullamarine VIC 3043, Australia",
		"category": 1,
		"lat": -37.7086419,
		"lng": 144.8630231,
		"title": "Gun Emporium"
	},
	{
		"address": "2/21 Research Dr, Croydon South VIC 3136, Australia",
		"category": 1,
		"lat": -37.8169718,
		"lng": 145.2919619,
		"title": "Oz Scopes"
	},
	{
		"address": "41 Campbell Street, Swan Hill VIC 3585, Australia",
		"category": 1,
		"lat": -35.335187,
		"lng": 143.558789,
		"title": "Swan Hill Fishing & Shooting"
	},
	{
		"address": "tower 5b/58 New Queen Rd, Queenton QLD, Australia",
		"category": 1,
		"lat": -20.0738078,
		"lng": 146.2575308,
		"title": "The Outpost - Arms &amp; Munitions - Charters Towers"
	},
	{
		"address": "359 Yaamba Road, Park Avenue QLD 4701, Australia",
		"category": 1,
		"lat": -23.3487328,
		"lng": 150.522577,
		"title": "The Outpost - Arms &amp; Munitions - Rockhampton"
	},
	{
		"address": "4 Hawker Rd, Taminda NSW 2340, Australia",
		"category": 1,
		"lat": -31.0959896,
		"lng": 150.8982394,
		"title": "Calibre Country"
	},
	{
		"address": "112 Brookman St, Kalgoorlie WA 6430, Australia",
		"category": 1,
		"lat": -30.7488095,
		"lng": 121.4683364,
		"title": "Freerange Supplies"
	},
	{
		"address": "17-19 Egerton St, Narrogin WA 6312, Australia",
		"category": 1,
		"lat": -32.9332164,
		"lng": 117.1783895,
		"title": "Steelos Guns & Outdoors"
	},
	{
		"address": "33 Danaher Dr, South Morang VIC 3752, Australia",
		"category": 1,
		"lat": -37.6482801,
		"lng": 145.0847944,
		"title": "Delta Tactical"
	},
	{
		"address": "809-811 South Road, Clarence Gardens SA 5039, Australia",
		"category": 1,
		"lat": -34.9681251,
		"lng": 138.5736111,
		"title": "Scoped Out"
	},
	{
		"address": "212 Gouger St, Adelaide SA 5000, Australia",
		"category": 1,
		"lat": -34.9303068,
		"lng": 138.5911941,
		"title": "Adelaide Gun Shop"
	},
	{
		"address": "57 Norseman Road, Castletown WA, Australia",
		"category": 1,
		"lat": -33.8366436,
		"lng": 121.8998861,
		"title": "Firearms Esperance"
	},
	{
		"address": "175 Federal Street, Narrogin WA 6312, Australia",
		"category": 1,
		"lat": -32.9436804,
		"lng": 117.180153,
		"title": "Steelos Outdoors"
	},
	{
		"address": "unit 3/52 Erindale Rd, Balcatta WA 6021, Australia",
		"category": 1,
		"lat": -31.865365,
		"lng": 115.807129,
		"title": "DOWNRANGE PERTH FIREARMS"
	},
	{
		"address": "230 Tea Tree Glen Road, Nalyappa, SA, 5558",
		"category": 2,
		"lat": -34.1990144,
		"lng": 137.5701967,
		"title": "Classic Firearms"
	},
	{
		"address": "19 Gervase Road, Warnertown SA 5540, Australia",
		"category": 2,
		"lat": -33.2357522,
		"lng": 138.1205634,
		"title": "Woolfwinch"
	},
	{
		"address": "5\\/3 Arunga Drive, Beresfield NSW 2322, Australia",
		"category": 2,
		"lat": -32.809498,
		"lng": 151.639683,
		"title": "Arms & Ammo"
	},
	{
		"address": "72 Wallace Street, Braidwood NSW 2622, Australia",
		"category": 2,
		"lat": -35.4453415,
		"lng": 149.7989259,
		"title": "Braidwood Outdoors"
	},
	{
		"address": "71 Brodie Drive, Coffs Harbour NSW 2450, Australia",
		"category": 2,
		"lat": -30.299687,
		"lng": 153.1293263,
		"title": "Coffs Guns & Safaris"
	},
	{
		"address": "104 Clinton Street, Goulburn NSW 2580, Australia",
		"category": 2,
		"lat": -34.7564466,
		"lng": 149.7118623,
		"title": "Fish N Shoots Tackleworld"
	},
	{
		"address": "16\\/9-11 Willow Tree Road, Wyong, NSW, 2259",
		"category": 2,
		"lat": -33.264448,
		"lng": 151.4478659,
		"title": "Lock N Load Firearm Supplies"
	},
	{
		"address": "1\\/38 Bells Line of Road, North Richmond NSW 2754, Australia",
		"category": 2,
		"lat": -33.5803955,
		"lng": 150.720506,
		"title": "Razorback Outdoors"
	},
	{
		"address": "149 Keen Street, Lismore NSW 2480, Australia",
		"category": 2,
		"lat": -28.8093816,
		"lng": 153.2779214,
		"title": "Suffolks Outdoor Sports"
	},
	{
		"address": "1\\/13 Hartley Drive, Thornton NSW 2322, Australia",
		"category": 2,
		"lat": -32.7877999,
		"lng": 151.6379198,
		"title": "Thornton Hunting & Outdoors"
	},
	{
		"address": "35 Carrington Street, Queanbeyan East NSW 2620, Australia",
		"category": 2,
		"lat": -35.3401846,
		"lng": 149.2405351,
		"title": "Tough Gear Hunting"
	},
	{
		"address": "35 Superior Drive, Dandenong, VIC, 3175",
		"category": 2,
		"lat": -38.0334182,
		"lng": 145.2027492,
		"title": "Armoury & Ammunition Service"
	},
	{
		"address": "23A McCormick Road, Kyabram VIC 3620, Australia",
		"category": 2,
		"lat": -36.3073276,
		"lng": 145.0342011,
		"title": "GFD Guns & Ammo"
	},
	{
		"address": "3\\/12 Gordon Street, Bairnsdale VIC 3875, Australia",
		"category": 2,
		"lat": -37.8345121,
		"lng": 147.6082001,
		"title": "Gun Sport Trading"
	},
	{
		"address": "59-61 Playne Street, Frankston VIC 3199, Australia",
		"category": 2,
		"lat": -38.1458367,
		"lng": 145.1249381,
		"title": "Miall\\u2019s Gun Shop"
	},
	{
		"address": "4 Bravo Loop, Pakenham, VIC, 3810",
		"category": 2,
		"lat": -38.1003382,
		"lng": 145.4814161,
		"title": "Pakenham Firearms"
	},
	{
		"address": "41-43 Anzac Avenue, Seymour VIC 3660, Australia",
		"category": 2,
		"lat": -37.0267078,
		"lng": 145.1404672,
		"title": "Total Sports"
	},
	{
		"address": "179A Fairy Street, Warrnambool VIC 3280, Australia",
		"category": 2,
		"lat": -38.378905,
		"lng": 142.480686,
		"title": "Warrnambool Diving & Firearms"
	},
	{
		"address": "17 High Street, Mansfield VIC 3722, Australia",
		"category": 2,
		"lat": -37.0521367,
		"lng": 146.0912349,
		"title": "The Shooting Zone"
	},
	{
		"address": "92 Gray Street, Hamilton VIC 3300, Australia",
		"category": 2,
		"lat": -37.7439606,
		"lng": 142.0234035,
		"title": "SportsPower Hamilton"
	},
	{
		"address": "3\\/21-23 Aerodrome Road, Caboolture QLD 4510, Australia",
		"category": 2,
		"lat": -27.0843611,
		"lng": 152.9812352,
		"title": "Caboolture Firearms"
	},
	{
		"address": "3\\/45 Heffernan Street, Mitchell ACT 2911, Australia",
		"category": 2,
		"lat": -35.2185089,
		"lng": 149.1418268,
		"title": "Shooters Wholesale Warehouse"
	},
	{
		"address": "903 La Trobe Street, Redan Ballarat, VIC 3350, Australia",
		"category": 2,
		"lat": -37.5717366,
		"lng": 143.8227629,
		"title": "Rehfisch"
	},
	{
		"address": "5 Campbell St, Oakey QLD 4401, Australia",
		"category": 2,
		"lat": -27.4430162,
		"lng": 151.7195192,
		"title": "The Barn"
	},
	{
		"address": "251 James St, Toowoomba City QLD 4350, Australia",
		"category": 2,
		"lat": -27.5672309,
		"lng": 151.9444796,
		"title": "THE OPEN RANGE PTY LTD"
	},
	{
		"address": "1\\/2 Paul Ct, Jimboomba QLD 4280, Australia",
		"category": 2,
		"lat": -27.8256463,
		"lng": 153.0298589,
		"title": "GUNS PLUS AMMO"
	},
	{
		"address": "115 Palmerin St, Warwick QLD 4370",
		"category": 2,
		"lat": -28.2164538,
		"lng": 152.0322889,
		"title": "WARWICK OUTDOORS & SPORTS"
	},
	{
		"address": "77A Boronia Road, Boronia VIC, Australia",
		"category": 2,
		"lat": -37.8624619,
		"lng": 145.2876987,
		"title": "Great southern outdoors"
	},
	{
		"address": "New Line Road, Dural NSW 2158, Australia",
		"category": 2,
		"lat": -33.7071095,
		"lng": 151.0256761,
		"title": "Australian Tactical Precision"
	},
	{
		"address": "Unit 7,Terminus Business Park, 20-34 Caterpillar Dr, Paget QLD 4740",
		"category": 2,
		"lat": -21.1874091,
		"lng": 149.1514682,
		"title": "Mackay Shooters Supplies"
	},
	{
		"address": "62 Venture Rd, Mareeba QLD 4880",
		"category": 2,
		"lat": -17.0580894,
		"lng": 145.4414413,
		"title": "Spring Loaded Gun Shop"
	},
	{
		"address": "251 James St, Toowoomba City QLD 4350",
		"category": 2,
		"lat": -27.5672309,
		"lng": 151.9444796,
		"title": "The Open Range"
	},
	{
		"address": "266 Brisbane St, West Ipswich QLD 4305",
		"category": 2,
		"lat": -27.6199619,
		"lng": 152.749542,
		"title": "Queensland Shooters Supplies"
	},
	{
		"address": "115 Palmerin St, Warwick QLD 4370",
		"category": 2,
		"lat": -28.2164538,
		"lng": 152.0322889,
		"title": "Warwick Outdoors & Sports"
	},
	{
		"address": "32 Strathaird Rd, Bundall QLD 4217",
		"category": 2,
		"lat": -28.0075004,
		"lng": 153.400588,
		"title": "Nyati Hunting Supplies"
	},
	{
		"address": "77A Boronia Rd, Boronia VIC 3155, Australia",
		"category": 2,
		"lat": -37.8624619,
		"lng": 145.2876987,
		"title": "Great Southern Outdoors"
	},
	{
		"address": "387 George St, Sydney NSW 2000, Australia",
		"category": 2,
		"lat": -33.8695297,
		"lng": 151.2067495,
		"title": "Georges Cameras"
	},
	{
		"address": "3b\\/107 Takalvan Street, Avoca QLD, Australia",
		"category": 2,
		"lat": -24.8869846,
		"lng": 152.3206737,
		"title": "Extreme Gear"
	},
	{
		"address": "29 Fairlawn Rd, Busselton WA 6280, Australia",
		"category": 2,
		"lat": -33.6628308,
		"lng": 115.3457885,
		"title": "Southwest Firearms"
	},
	{
		"address": "809-811 South Road, Clarence Gardens SA 5039",
		"category": 2,
		"lat": -34.9681551,
		"lng": 138.5735277,
		"title": "Scoped Out"
	},
	{
		"address": "6 Dutton Rd, Mount Barker SA 5251, Australia",
		"category": 2,
		"lat": -35.0680446,
		"lng": 138.8652906,
		"title": "Horizon Leisure"
	},
	{
		"address": "6 Thiess Crescent, Muswellbrook NSW, Australia",
		"category": 2,
		"lat": -32.2616975,
		"lng": 150.9081461,
		"title": "ELKS ENTERPRISES PTY LTD"
	},
	{
		"address": "Shop 3, Sheridan Street & Smith St, Cairns North QLD 4870, Australia",
		"category": 2,
		"lat": -16.917967,
		"lng": 145.7692962,
		"title": "Night Sky Secrets"
	},
	{
		"address": "74-76 Liverpool St, Port Lincoln SA 5606, Australia",
		"category": 2,
		"lat": -34.7241037,
		"lng": 135.8624328,
		"title": "Lincoln Rural Supplies"
	},
	{
		"address": "60 Smith St, Naracoorte SA 5271, Australia",
		"category": 2,
		"lat": -36.9568453,
		"lng": 140.7410319,
		"title": "Naracoorte Pumps and Electrical"
	},
	{
		"address": "54 Esmond Rd, Port Pirie South SA 5540, Australia",
		"category": 2,
		"lat": -33.1929619,
		"lng": 138.0117611,
		"title": "Flinders Firearms"
	},
	{
		"address": "2\\/21 Research Dr, Croydon South VIC 3136, Australia",
		"category": 2,
		"lat": -37.8169718,
		"lng": 145.2919619,
		"title": "Ozhut"
	},
	{
		"address": "unit 2\\/78 Seventh St, Boolaroo NSW 2284, Australia",
		"category": 2,
		"lat": -32.954763,
		"lng": 151.6165755,
		"title": "Newcastle Armoury"
	},
	{
		"address": "360 Clayton Rd, Clayton VIC 3168, Australia",
		"category": 2,
		"lat": -37.928302,
		"lng": 145.119371,
		"title": "Clayton Firearms"
	},
	{
		"address": "293 Draper Street, Parramatta Park QLD, Australia",
		"category": 2,
		"lat": -16.9248483,
		"lng": 145.7666138,
		"title": "Lock &amp; Load Co"
	},
	{
		"address": "103 Charters Towers Road, Hyde Park QLD, Australia",
		"category": 2,
		"lat": -19.2756618,
		"lng": 146.8006587,
		"title": "Halls Firearms Garbutt"
	},
	{
		"address": "42 Gladstone Rd, Allenstown QLD, Australia",
		"category": 2,
		"lat": -23.3890322,
		"lng": 150.5066092,
		"title": "Halls Firearms Allenstown"
	},
	{
		"address": "54 Kariboe Street, Biloela QLD, Australia",
		"category": 2,
		"lat": -24.4012708,
		"lng": 150.5130942,
		"title": "Retschlag Firearms"
	},
	{
		"address": "shop 2\\/33 Archibald Street, Dalby QLD, Australia",
		"category": 2,
		"lat": -27.1806725,
		"lng": 151.2641517,
		"title": "Bucked Off Western Wear"
	},
	{
		"address": "5380 Cunningham Hwy, Silverdale QLD, Australia",
		"category": 2,
		"lat": -27.8831092,
		"lng": 152.6111716,
		"title": "Hayes &amp; Co"
	},
	{
		"address": "24 Matthew St, Stanthorpe QLD, Australia",
		"category": 2,
		"lat": -28.6576789,
		"lng": 151.9352216,
		"title": "John Vichie Firearms"
	},
	{
		"address": "15 Isa Street, Mornington QLD, Australia",
		"category": 2,
		"lat": -20.7291075,
		"lng": 139.4943806,
		"title": "Ozzie Outdoors"
	},
	{
		"address": "5 Molesworth Street, Tenterfield NSW, Australia",
		"category": 2,
		"lat": -29.0501594,
		"lng": 152.0077208,
		"title": "Tenterfield Firearms"
	},
	{
		"address": "24 Foch Street, North Shore Victoria, Australia",
		"category": 2,
		"lat": -38.0937542,
		"lng": 144.3706386,
		"title": "WILD OUTDOORS AUSTRALIA"
	},
	{
		"address": "176 Holder Top Road, Holder SA, Australia",
		"category": 2,
		"lat": -34.1762584,
		"lng": 140.0283322,
		"title": "BROCK GUN SPORTS"
	}
]
